ID,Clee,Nombre de la Unidad EconÛmica,RazÛn social,CÛdigo de la clase de actividad SCIAN,Nombre de clase de la actividad,Descripcion estrato personal ocupado,Tipo de vialidad,Nombre de la vialidad,Tipo de entre vialidad 1,Nombre de entre vialidad 1,Tipo de entre vialidad 2,Nombre de entre vialidad 2,Tipo de entre vialidad 3,Nombre de entre vialidad 3,N˙mero exterior o kilÛmetro,Letra exterior,Edificio,Edificio Piso,N˙mero interior,Letra interior,Tipo de asentamiento humano,Nombre de asentamiento humano,Tipo centro comercial,"Corredor industrial, centro comercial o mercado p˙blico",N˙mero de local,CÛdigo Postal,Clave entidad,Entidad federativa,Clave municipio,Municipio,Clave localidad,Localidad,¡rea geoestadÌstica b·sica ,Manzana,N˙mero de telÈfono,Correo electrÛnico,Sitio en Internet,Tipo de establecimiento,Latitud,Longitud,Fecha de incorporaciÛn al DENUE
3664815,24028611161000313000000000U1,ASOCIACION PREPARATORIA INSTITUTO BENEMERITO DE LAS AMERICAS,ASOCIACION PREPARATORIA INSTITUTO BENEMERITO DE LAS AMERICAS AC,611161,Escuelas de educaciÛn media superior del sector privado,0 a 5 personas,CALLE,AVANZADA,CALLE,BARRIO DEL MONTECILLO,CALLE,GARCIA DIEGO,PROLONGACION,NEREO RODRIGUEZ BARRAGAN,90,,,,0,A,COLONIA,SAN PEDRO,,,,78178,24,SAN LUIS POTOSÕ        ,28,San Luis PotosÌ,1,San Luis PotosÌ,3088,12,,PREPABENEMERITO-SLP@HOTMAIL.COM,,Fijo,22.15563647,-100.9983035,2010-07
3689770,24028611161000512000000000U8,BACHILLERATO TECNOLOGICO DEL INSTITUTO BILINGUE EJECUTIVO Y PEDAGOGICO DEL POTOSI,,611161,Escuelas de educaciÛn media superior del sector privado,11 a 30 personas,CALLE,AGUSTIN DE ITURBIDE,CALLE,HERRERA,CALLE,MANUEL DEL CONDE,CALLE,MELCHOR OCAMPO,923,,,,0,,COLONIA,CENTRO,,,,78360,24,SAN LUIS POTOSÕ        ,28,San Luis PotosÌ,1,San Luis PotosÌ,473,35,4441406027,OLIVIASESMA@HOTMAIL.COM.MX,WWW.IBEPP.EDU.MX,Fijo,22.15000419,-100.9799611,2010-07
8002474,24035611162000083000000000U3,CECYTE,SECRETARIA DE EDUCACION DE GOBIERNO DEL ESTADO ,611162,Escuelas de educaciÛn media superior del sector p˙blico,31 a 50 personas,CALLE,LATERAL SAN LUIS MATEHUALA,CALLE,MIGUEL HIDALGO,CALLE,BENITO JUAREZ,CALLE,2 DE ABRIL,0,SN,,,,,COLONIA,SOLEDA DE GRACIANO SANCHEZ,,,,78430,24,SAN LUIS POTOSÕ        ,35,Soledad de Graciano S·nchez,1,Soledad de Graciano S·nchez,459,35,,,,Fijo,22.18468033,-100.9503114,2019-11
10165047,24028611162000536000000000U5,CECYTE 3NUEVO PROGRESO,CP EFRAIN NI—O CASTELLANOS ,611162,Escuelas de educaciÛn media superior del sector p˙blico,101 a 250 personas,PROLONGACION,SIRIA,CALLE,SINGAPUR,CALLE,TAIWAN,PROLONGACION,PORTUGAL,210,,,,,,COLONIA,LOMAS DE SATELITE,,,,78360,24,SAN LUIS POTOSÕ        ,28,San Luis PotosÌ,1,San Luis PotosÌ,3177,13,,,WWW.CECITESLP.EDU,Fijo,22.11080819,-100.9489488,2024-11
3752024,24028611152000024000000000U3,CECYTE PLANTEL 1,ORGANISMO DESCENTRALIZADO DEL GOBIERNO FEDERAL Y ESTATAL ,611162,Escuelas de educaciÛn media superior del sector p˙blico,51 a 100 personas,PROLONGACION,SATELITE SUR,PROLONGACION,SATELITE SUR,CALLE,CALLE DEL JARALITO,CALLE,BENITO JUAREZ,750,,,,0,,COLONIA,LOMA DEL MEZQUITAL,,,,78382,24,SAN LUIS POTOSÕ        ,28,San Luis PotosÌ,1,San Luis PotosÌ,3374,22,4448175467,,WWW.CECYTESLP.EDU.MX,Fijo,22.17815365,-101.0154782,2010-07
3671401,24028611162000286000000000U7,CENTRO DE BACHILLERATO TECNOLOGICO INDUSTRIAL Y DE SERVICIOS NO 131 CEBETIS,GOBIERNO FEDERAL ,611162,Escuelas de educaciÛn media superior del sector p˙blico,101 a 250 personas,CALLE,ITALIA,CALLE,VIENA,CALLE,BERNA,CALLE,VIENA,98,,,,0,SN,COLONIA,GENOVEVO RIVAS GUILLN SUR,,,,78437,24,SAN LUIS POTOSÕ        ,28,San Luis PotosÌ,1,San Luis PotosÌ,172A,50,,,,Fijo,22.14466473,-100.9342091,2010-07
3675116,24035611152000016000000000U4,CENTRO DE BACHILLERATO TECNOLOGICO INDUSTRIAL Y DE SERVICIOS NO121,GOBIERNO FEDERAL ,611162,Escuelas de educaciÛn media superior del sector p˙blico,101 a 250 personas,CALLE,CONSTITUCION DE 1857,CALLE,FRANCISCO HERNANDEZ,CALLE,LICENCIADO RAFAEL NIETO COMPEAN,CALLE,LICENCIADO RAFAEL NIETO COMPEAN,38,,,,0,,COLONIA,BENITO JUAREZ,,,,78745,24,SAN LUIS POTOSÕ        ,35,Soledad de Graciano S·nchez,1,Soledad de Graciano S·nchez,050A,2,,,,Fijo,22.1582885,-100.9218061,2010-07
10350344,24028611161000752000000000U0,CENTRO DE CAPACITACION EDU MX,CENTRO DE CAPACITACION EDU MX SC,611161,Escuelas de educaciÛn media superior del sector privado,6 a 10 personas,AVENIDA,DAMIAN CARMONA,CALLE,GENERAL IGNACIO MARTINEZ,CALLE,FAUSTO NIETO,CALLE,MARIANO HIDALGO,923,,PLAZA DEL POTOSI,PISO 1,7,,COLONIA,CENTRO,CENTRO Y PLAZA COMERCIAL,PLAZA DEL POTOSI,7,78000,24,SAN LUIS POTOSÕ        ,28,San Luis PotosÌ,1,San Luis PotosÌ,350,12,,,,Fijo,22.15783016,-100.9797951,2024-11
3690676,24028611698000051010000000U8,CENTRO DE EDUCACION INTENSIVA PREPARATORIA,,611161,Escuelas de educaciÛn media superior del sector privado,6 a 10 personas,AVENIDA,UNIVERSIDAD,AVENIDA,CONSTITUCION,CALLE,PARRODI,CALLE,MARIANO ABASOLO,684,,,,,,BARRIO,SAN SEBASTIAN,,,,78000,24,SAN LUIS POTOSÕ        ,28,San Luis PotosÌ,1,San Luis PotosÌ,3105,29,,,,Fijo,22.15038725,-100.9718981,2010-07
3749721,24028611152000076000000000U3,CENTRO DE ESTUDIOS TECNOLOGICOS INDUSTRIAL Y DE SERVICIOS 125,CETIS 125 ,611162,Escuelas de educaciÛn media superior del sector p˙blico,101 a 250 personas,CALLE,SAN MANUEL,AVENIDA,PANFILO NATERA,CALLE,SAN CARLOS,CALLE,SAN MANUEL,,DOMICILIO CONOCIDO,,,0,,COLONIA,SAUZALITO,,,,78116,24,SAN LUIS POTOSÕ        ,28,San Luis PotosÌ,1,San Luis PotosÌ,2643,11,4448230003,CETIS125.DIR@DEGETI.SEM.GOB.MX,CETIS125.EDU.MX,Fijo,22.195241,-101.002963,2010-07
10095905,24028611161000771000000000U0,CENTRO EDUCATIVO FUNDADORES,,611161,Escuelas de educaciÛn media superior del sector privado,0 a 5 personas,CALLE,7,AVENIDA,VASCO DE QUIROGA,CALLE,PASAJE V,PRIVADA,8,311,,,,,,COLONIA,INDUSTRIAL AVIACION,,,,78140,24,SAN LUIS POTOSÕ        ,28,San Luis PotosÌ,1,San Luis PotosÌ,187,28,,,,Fijo,22.17203614,-100.999406,2024-11
9511523,24028611162000541000000000U5,CENTRO POTOSINO DE EVALUACION Y ESTUDIOS AVANZADOS,SEEGE ,611162,Escuelas de educaciÛn media superior del sector p˙blico,0 a 5 personas,CALLE,LA LONJA,CALLE,HEROES POTOSINOS,CALLE,LEON GARCIA,CALLE,REPUBLICA,600,,,,,,COLONIA,NI—OS HEROES,,,,78340,24,SAN LUIS POTOSÕ        ,28,San Luis PotosÌ,1,San Luis PotosÌ,1293,33,,,,Fijo,22.13533698,-100.9762719,2024-11
7463170,24028611162000481000000000U4,CENTRO PROFESIONAL DE EDUCACION MEDIA SUPERIOR,,611162,Escuelas de educaciÛn media superior del sector p˙blico,0 a 5 personas,AVENIDA,SALK,CALLE,LATERAL SALVADOR NAVA MARTINEZ,CALLE,MORSE,AVENIDA,SALK,27,,,,0,,FRACCIONAMIENTO,VALLE DEL POTOSI,,,,78379,24,SAN LUIS POTOSÕ        ,28,San Luis PotosÌ,1,San Luis PotosÌ,3355,26,4444241184,DIRECCION.SLP@CPMS.EDU.MX,WWW.CPEMS.EDU.MX,Fijo,22.13409743,-100.9578764,2019-11
6475179,24035611161000046000000000U2,COBACH 01,COLEGIO DE BACHILLERES 01 SAN LUIS POTOSI ,611162,Escuelas de educaciÛn media superior del sector p˙blico,51 a 100 personas,CALLE,LAUREL,CALLE,CALLE DE LA ROSA,CALLE,ALAMOS,AVENIDA,PARQUE AGUA AZUL,455,,,,0,,FRACCIONAMIENTO,COLINAS DEL BOSQUE,,,,78438,24,SAN LUIS POTOSÕ        ,35,Soledad de Graciano S·nchez,1,Soledad de Graciano S·nchez,1029,4,4448165545,PLANTEL01@CBSLP.EDU.MX,,Fijo,22.14719065,-100.9213543,2016-01
6472295,24028611161000385001000000U9,COBACH COLEGIO DE BACHILLERES PLANTEL 26 HALCONES,COLEGIO DE BACHILLERES DEL ESTADO DE SAN LUIS POTOSI ,611162,Escuelas de educaciÛn media superior del sector p˙blico,101 a 250 personas,CARRETERA,A GUADALAJARA,CALLE,CALLE DEL PLATANITO,OTRO(ESPECIFIQUE),MANZANA O EDIFICACION CONTIGUA,CIRCUITO,MIRASIERRA,2000,,,,,,COLONIA,LOMAS DEL TECNOLOGICO,,,,78218,24,SAN LUIS POTOSÕ        ,28,San Luis PotosÌ,1,San Luis PotosÌ,343A,36,4448254061,PLANTEL26@CBSLP.EDU.MX,CBSLP.EDU.MX,Fijo,22.12980525,-101.0376864,2016-01
3667291,24035611162000011000000000U4,COLEGIO DE BACHILLERES PLANTEL 17,COLEGIO DE BACHILLERES DE SAN LUIS POTOSI ,611162,Escuelas de educaciÛn media superior del sector p˙blico,51 a 100 personas,ANDADOR,ANDADOR DE LA LAVA,CALLE,CALLE DEL VOLCAN,CALLE,ITURBIDE,AVENIDA,AVENIDA DEL AGUA,0,SN,,,0,,COLONIA,RANCHO PAVON,,,,78430,24,SAN LUIS POTOSÕ        ,35,Soledad de Graciano S·nchez,1,Soledad de Graciano S·nchez,764,40,4448310780,,,Fijo,22.17673745,-100.9506202,2010-07
3751302,24028611162000225000000000U5,COLEGIO DE BACHILLERES PLANTEL 19,COLEGIO DE BACHILLERES DEL ESTADO DE SAN LUIS POTOSI ,611162,Escuelas de educaciÛn media superior del sector p˙blico,51 a 100 personas,CALLE,FELIPE ANGELES,CALLE,SAUCITO,PRIVADA,FELIPE ANGELES,CALLE,PITAHAYAS,0,SN,,,,,COLONIA,EL SAUCITO,,,,78110,24,SAN LUIS POTOSÕ        ,28,San Luis PotosÌ,1,San Luis PotosÌ,1359,28,4448230108,PLANTEL19@CVSLP.EDU.MX,,Fijo,22.18537771,-100.9967615,2010-07
3678876,24028611162000103001000000U4,COLEGIO DE BACHILLERES PLANTEL NUMERO 25,SECRETARIA DE EDUCACION DE GOBIERNO DEL ESTADO SEGE ,611162,Escuelas de educaciÛn media superior del sector p˙blico,51 a 100 personas,CALLE,REPUBLICA DE EL SALVADOR,AVENIDA,SIMON DIAZ,CALLE,AMERICA DEL SUR,CALLE,REPUBLICA DE URUGUAY,250,,,,0,,COLONIA,SATELITE,,,,78380,24,SAN LUIS POTOSÕ        ,28,San Luis PotosÌ,1,San Luis PotosÌ,863,10,4444759551,PLANTEL25@CBSLP.EDU.MX,WWW.CBSLP.EDU.MX,Fijo,22.11444813,-100.9549814,2010-07
3671838,24028611162000265000000000U1,COLEGIO DE BACHILLERES PLANTEL NUMERO 28 SAN LUIS V,GOBIERNO DEL ESTADO DE SAN LUIS POPTOSI ,611162,Escuelas de educaciÛn media superior del sector p˙blico,51 a 100 personas,CALLE,CONCEPCION MACIAS,CALLE,GUADALUPE VAZQUEZ CASTILLO,CALLE,PEDRO VALLEJO,CALLE,SARA RIVERA,500,,,,,,COLONIA,GRACIANO SANCHEZ,,,,78360,24,SAN LUIS POTOSÕ        ,28,San Luis PotosÌ,1,San Luis PotosÌ,793,23,,PLANTEL28@CBSLP.EDU.MX,WWW.CVSLP.EDU.MX,Fijo,22.12727329,-100.9785161,2010-07
3708191,24028611161000451000000000S9,COLEGIO DE EDUCACION MEDIA SUPERIOR ABIERTA,,611161,Escuelas de educaciÛn media superior del sector privado,0 a 5 personas,CALLE,LOMA DORADA,CALLE,CERRO VIEJO,CALLE,CERRO ALTO,CALLE,LOMA DORADA,505,A,,,304,,COLONIA,LOMA VERDE,,,,78214,24,SAN LUIS POTOSÕ        ,28,San Luis PotosÌ,1,San Luis PotosÌ,3622,13,,CEMSA@CEMSA.EDU.MX,WWW.CEMSA.EDU.MX,Fijo,22.1342488,-101.0286078,2014-12
7981347,24028611161000691000000000U0,COLEGIO DE EDUCACION MEDIA SUPERIOR ABIERTO,,611161,Escuelas de educaciÛn media superior del sector privado,0 a 5 personas,CALLE,GENERAL MARIANO ARISTA,CALLE,TOMASA ESTEVES,CALLE,GENERAL ROCHA,AVENIDA,VENUSTIANO CARRANZA,817,,,,0,,BARRIO,TEQUISQUIAPAN,,,,78230,24,SAN LUIS POTOSÕ        ,28,San Luis PotosÌ,1,San Luis PotosÌ,1984,23,,DE.GENERAL.CEMSA@GMAIL.COM,WWW.CEMSA.EDU.MX,Fijo,22.15169741,-100.9862338,2019-11
9068288,24028611162000505000000000U0,COLEGIO DE ESTUDIOS CIENTIFICOS Y TECNOLOGICOS DE SAN LUIS POTOSI,COLEGIO DE ESTUDIOS CIENTIFICOS Y TECNOLOGICOS DE SAN LUIS POTOSI ,611162,Escuelas de educaciÛn media superior del sector p˙blico,51 a 100 personas,CALLE,ALBERTO COSSIO,AVENIDA,JESUS GOYTORTUA,CALLE,JOSE MARIA FLORES VERDAD,CALLE,ANTONIO DE LA LUZ G.,105,,EDIFICIO,PISO 2,13,,FRACCIONAMIENTO,TANGAMANGA,EDIFICIO COMERCIAL Y DE SERVICIOS,MW,15,78269,24,SAN LUIS POTOSÕ        ,28,San Luis PotosÌ,1,San Luis PotosÌ,2164,15,,,WWW.CECITESLP.EDU.MX,Fijo,22.14053574,-100.9984992,2019-11
3672647,24028611312000206000000000U6,COLEGIO DE ESTUDIOS CIENTIFICOS Y TECNOLOGICOS DEL ESTADON PLANTEL 2,COLEGIO DE ESTUDIOS TECNOLOGICOS Y CIENTIFICOS DEL ESTADO DE SAN LUIS POTOS ,611162,Escuelas de educaciÛn media superior del sector p˙blico,101 a 250 personas,AVENIDA,REAL SAN PEDRO,CALLE,LISBOA,CALLE,ESPA—A,CALLE,REAL DEL MONTE,0,SN,,,0,,FRACCIONAMIENTO,MINAS DEL REAL,,,,78396,24,SAN LUIS POTOSÕ        ,28,San Luis PotosÌ,1,San Luis PotosÌ,329A,2,,TERE.FLORES@CECYTESLP.EDU.MX,WWW.CECYTESLP.EDU.MX,Fijo,22.13735021,-100.9316495,2010-07
11130581,24028611161000782000000000U7,COLEGIO SAN LUIS REY DE FRANCIA,UNIVERSIDAD POTOSINA SC,611161,Escuelas de educaciÛn media superior del sector privado,6 a 10 personas,AVENIDA,VENUSTIANO CARRANZA,CALLE,URESTI,CALLE,TOMASA ESTEVES,CALLE,GENERAL MARIANO ARISTA,726,,,,,,COLONIA,TEQUISQUIAPAN,,,,78250,24,SAN LUIS POTOSÕ        ,28,San Luis PotosÌ,1,San Luis PotosÌ,197A,16,,,,Fijo,22.15099555,-100.9831496,2024-11
3734673,24028611131000011000000000U4,COLEGIO VASCONCELOS,,611161,Escuelas de educaciÛn media superior del sector privado,0 a 5 personas,AVENIDA,REFORMA,CALLE,IGNACIO ALLENDE,AVENIDA,DAMIAN CARMONA,CALLE,SAN LUIS,705,,,,0,PLANTA ALTA,COLONIA,CENTRO,,,,78000,24,SAN LUIS POTOSÕ        ,28,San Luis PotosÌ,1,San Luis PotosÌ,037A,6,4441680129,COLEGIOJBC02@HOTMAIL.COM,,Fijo,22.15691763,-100.9787116,2010-07
9939561,24028611161000791000000000U8,COLEGTDE ARQUITECTOS NUEVO MILENIO AC CANMAC,COLEGIO DE ARQUITECTOS NUEVO MILENIO AC,611161,Escuelas de educaciÛn media superior del sector privado,0 a 5 personas,CALLE,SIMON DIAZ,CALLE,NINGUNO,CALLE,REFORMA AGRARIA,CALLE,PROTECCION A LA INFANCIA,570,,EDIFICIO SIN NOMBRE,PISO 1,,,BARRIO,SAN JUAN DE GUADALUPE,EDIFICIO COMERCIAL Y DE SERVICIOS,EDIFICIO COMERCIAL Y DE SERVICIOS SIN NOMBRE,SN,78340,24,SAN LUIS POTOSÕ        ,28,San Luis PotosÌ,1,San Luis PotosÌ,1293,38,,CANMACSLP@AUTLOOKMAIL.COM,,Fijo,22.13181555,-100.9679975,2024-11
3676178,24035611152000036001000000U2,CONALEP,COLEGIO DE EDUCACION PROFESIONAL TECNICA DEL ESTADO ,611162,Escuelas de educaciÛn media superior del sector p˙blico,51 a 100 personas,AVENIDA,PARQUE AGUA AZUL,CALLE,ALAMOS,CALLE,CRISANTEMO,CALLE,NINGUNO,1501,,,,,,FRACCIONAMIENTO,COLINAS DEL BOSQUE,,,,78438,24,SAN LUIS POTOSÕ        ,35,Soledad de Graciano S·nchez,1,Soledad de Graciano S·nchez,1029,1,4448211169,SLP205@SLP.CONALEP.EDU.MX,,Fijo,22.14702404,-100.9195148,2014-12
3686017,24028611161000396000000000U6,CONALEP INGENIERO MANUEL MORENO TORRES,SECRETARIA DE EDUCACION PUBLICA ,611162,Escuelas de educaciÛn media superior del sector p˙blico,101 a 250 personas,AVENIDA,PROMOCION,CALLE,EJE 118,AVENIDA,PLANEACION,CALLE,SINDICATO,0,SN,,,,,COLONIA,INDUSTRIAL SAN LUIS,,,,78395,24,SAN LUIS POTOSÕ        ,28,San Luis PotosÌ,1,San Luis PotosÌ,1109,5,,IMMTO43@SLP.CONALEP.EDU.MX,WWW.CONALEPSLP.COM.MX,Fijo,22.10324426,-100.9069836,2010-07
3683146,24028611171000871001076194M7,EDUCANDONOS SABEMOS MAS,EDUCANDONOS SABEMOS MAS SC,611161,Escuelas de educaciÛn media superior del sector privado,6 a 10 personas,CALLE,LERDO DE TEJADA,CALLE,MARIANO ABASOLO,AVENIDA,UNIVERSIDAD,CALLE,JOSE MARIA MORELOS Y PAVON,130,,,,0,,COLONIA,CENTRO,,,,78000,24,SAN LUIS POTOSÕ        ,28,San Luis PotosÌ,1,San Luis PotosÌ,488,24,4445490411,EDUMAS_SLP@HOTMAIL.COM,WWW.EDUMAS.EDU.MX,Fijo,22.14990631,-100.973147,2010-07
7981161,24028611151000102000000000U9,EDUCATIVO TECNOLOGICO EMETA,,611161,Escuelas de educaciÛn media superior del sector privado,0 a 5 personas,CALLE,CARLOS DIEZ GUTIERREZ,CALLE,PROFESOR PEDRO VALLEJO,CALLE,5 DE MAYO,CALLE,PRIMERA DE MASCORRO,1090,,,,0,,BARRIO,SAN MIGUELITO,,,,78339,24,SAN LUIS POTOSÕ        ,28,San Luis PotosÌ,1,San Luis PotosÌ,609,9,,,WWW.EMETA.EDU.MX,Fijo,22.13943026,-100.9739232,2019-11
7966133,24028611151000091000000000U4,ESCUELA MEXICANA DE CONFITERIA Y CHOCOLATERIA,ESCUELA MEXICANA DE CONFITERIA Y CHOCOLATERIA SA DE CV,611151,Escuelas de educaciÛn media tÈcnica terminal del sector privado,0 a 5 personas,CALLE,MELCHOR OCAMPO,CALLE,BENIGNO ARRIAGA,PRIVADA,PRIMERA MELCHOR OCAMPO,AVENIDA,CUAUHTEMOC,926,,,,0,,BARRIO,TEQUISQUIAPAN,,,,78250,24,SAN LUIS POTOSÕ        ,28,San Luis PotosÌ,1,San Luis PotosÌ,473,25,4445373841,EMCC030165@GMAIL.COM,WWW.CONFITERIAYCHOCOLATERIAMEXICANA.COM.MX,Fijo,22.14749303,-100.9879032,2019-11
3688053,24028611162000204000000000U0,ESCUELA PREPARATORIA COOPERATIVA PRFR JESUS R ALDERETE,SEER ,611162,Escuelas de educaciÛn media superior del sector p˙blico,51 a 100 personas,CALLE,AGUSTIN MELGAR,CALLE,PROFESOR PEDRO VALLEJO,CALLE,5 DE MAYO,CALLE,CARLOS DIEZ GUTIERREZ,300,,,,0,,BARRIO,SAN MIGUELITO,,,,78339,24,SAN LUIS POTOSÕ        ,28,San Luis PotosÌ,1,San Luis PotosÌ,609,1,,PREP_ALDERETE@HOTMAIL.COM,,Fijo,22.13861161,-100.974094,2010-07
3740209,24028611162000306000000000U3,ESCUELA PREPARATORIA FRANCISCO MARTINEZ DE LA VEGA,SISTEMA EDUCATIVO ESTATAL REGULAR ,611162,Escuelas de educaciÛn media superior del sector p˙blico,31 a 50 personas,CALLE,PLAN DE SAN LUIS,CALLE,JUAN ALVAREZ,CALLE,CICLON,AVENIDA,DAMIAN CARMONA,207,,,,0,,COLONIA,BARRIO DE SANTIAGO,,,,78049,24,SAN LUIS POTOSÕ        ,28,San Luis PotosÌ,1,San Luis PotosÌ,261,5,4448121871,PREPARATORIA-FMV@HOTMAIL.COM,,Fijo,22.16514152,-100.9789891,2010-07
3740725,24028611162000255000000000U2,ESCUELA PREPARATORIA J NATIVIDAD SANCHEZ,GOBIERNO DEL ESTADO DE SAN LUIS POTOSI ,611162,Escuelas de educaciÛn media superior del sector p˙blico,11 a 30 personas,CALLE,EJE VIAL PONCIANO ARRIAGA,CALLE,CICLON,CALLE,JUAN ALVAREZ,CALLE,MOCTEZUMA,605,,,,0,,COLONIA,BARRIO DE TLAXCALA,,,,78038,24,SAN LUIS POTOSÕ        ,28,San Luis PotosÌ,1,San Luis PotosÌ,280,7,,JNATIVIDADS@HOTMAIL.COM,,Fijo,22.1653115,-100.9746161,2010-07
3668520,24028611162000063001000000U0,ESCUELA PREPARATORIA JOSE CESAR CRUZ SANDOVAL 24SBC0026L,GOBIERNO ESTATAL ,611162,Escuelas de educaciÛn media superior del sector p˙blico,51 a 100 personas,CALLE,VALENTINOS,CALLE,PASEO DEL CANAL,CALLE,PASEO DE LOS DERECHOS HUMANOS,AVENIDA,SIERRA LEONA,1,,,,0,,COLONIA,LOMAS DE LOS FILTROS,,,,78219,24,SAN LUIS POTOSÕ        ,28,San Luis PotosÌ,1,San Luis PotosÌ,2094,44,4448135177,JCCS_SEER@HOTMAIL.COM,,Fijo,22.1502978,-101.0222194,2014-12
3673432,24028611162000164000000000U6,ESCUELA PREPARATORIA JOSE JUAREZ BARBOSA,SECRETARIA DE EDUCACION DEL GOBIERNO DEL ESTADO ,611162,Escuelas de educaciÛn media superior del sector p˙blico,31 a 50 personas,CALLE,BURGOS,CALLE,TURQUESA,CALLE,GRANADA,AVENIDA,ESTRELLA,150,B,,,0,SN,FRACCIONAMIENTO,DEL LLANO,,,,78377,24,SAN LUIS POTOSÕ        ,28,San Luis PotosÌ,1,San Luis PotosÌ,2291,1,4448163894,PREP.JJB@HOTMAIL.COM,,Fijo,22.13426321,-100.9482182,2010-07
3675914,24028611162000011001000000U9,ESCUELA PREPARATORIA JOSE MARIANO JIMENEZ,GOBIERNO DEL ESTADO ,611162,Escuelas de educaciÛn media superior del sector p˙blico,6 a 10 personas,CALLE,HIDALGO,CALLE,NINGUNO,CALLE,SEBASTIANICOLAS BRAVO,CALLE,SEBASTIANICOLAS BRAVO,130,,,,,,COLONIA,PLAZA 3 DE MAYO,,,,78000,24,SAN LUIS POTOSÕ        ,28,San Luis PotosÌ,252,Escalerillas,2751,16,4441805037,,,Fijo,22.1113215,-101.0770023,2010-07
7965784,24028611162000404000000000U6,ESCUELA PREPARATORIA JUAN GREGORIO SALINAS FUENTES,SISTEMA EDUCATIVO ESTATAL REGULAR ,611162,Escuelas de educaciÛn media superior del sector p˙blico,31 a 50 personas,CALLE,NINGUNO,CALLE,GOMEZ PEDRAZA,PRIVADA,NINGUNO,CALLE,MARIANO JIMENEZ,265,,,,0,,COLONIA,AZTECA NORTE,,,,78310,24,SAN LUIS POTOSÕ        ,28,San Luis PotosÌ,1,San Luis PotosÌ,399,10,,PREPAJUANGREGORIOSALINASF@OUTLOOK.COM,,Fijo,22.15399402,-100.9692981,2019-11
11185567,24028611162000552000000000U2,ESCUELA PREPARATORIA MIGUEL DE CERVANTES Y SAAVEDRA,ESCUELA PREPARATORIA MIGUEL DE CERVANTES Y SAAVEDRA ,611162,Escuelas de educaciÛn media superior del sector p˙blico,6 a 10 personas,CALLE,JAZMIN,CALLE,ORQUIDEA,CALLE,LIRIO,CALLE,AZUCENA,400,,,,,,COLONIA,LAS FLORES,,,,78109,24,SAN LUIS POTOSÕ        ,28,San Luis PotosÌ,1,San Luis PotosÌ,1787,14,4441305901,,,Fijo,22.20722121,-100.9883377,2024-11
3752120,24028611161000283000000000U6,ESCUELA PREPARATORIA MUNICIPAL EL SAUCITO,MUNICIPIO DE SAN LUIS POTOSI ,611162,Escuelas de educaciÛn media superior del sector p˙blico,11 a 30 personas,CALLE,PLAN DE AYUTLA DE 1854,OTRO(ESPECIFIQUE),NINGUNO,OTRO(ESPECIFIQUE),NINGUNO,OTRO(ESPECIFIQUE),NINGUNO,125,,,,,,COLONIA,EL SAUCITO,,,,78110,24,SAN LUIS POTOSÕ        ,28,San Luis PotosÌ,1,San Luis PotosÌ,1880,8,,PREPASAUCITO@GMAIL.COM,,Fijo,22.18288269,-101.0024118,2010-07
3685566,24028611162000032000000000U5,ESCUELA PREPARATORIA MUNICIPAL NUEVA GENERACION,SEGE GOBIERNO ,611162,Escuelas de educaciÛn media superior del sector p˙blico,11 a 30 personas,CALLE,PANFILO NATERA,CALLE,PANFILO NATERA,CALLE,VENUSTIANO CARRANZA,CALLE,NINGUNO,200,,,,,,COLONIA,EMILIANO ZAPATA,,,,78422,24,SAN LUIS POTOSÕ        ,28,San Luis PotosÌ,264,La Pila,2747,19,,PREPA_NUEVAGENERACIONLAPILA@OUTLOOK.COM,,Fijo,22.02825699,-100.8686095,2010-07
3689717,24028611162000154000000000U4,ESCUELA PREPARATORIA POR COOPERACION LIC ANTONIO ROCHA CORDERO,ESCUELA PREPARATORIA POR COOPERACION LIC ANTONIO ROCHA CORDERO ,611161,Escuelas de educaciÛn media superior del sector privado,11 a 30 personas,CALLE,XICOTENCATL,CALLE,FERNANDO ROSAS,CALLE,ZENON FERNANDEZ,CALLE,LEON GARCIA,605,,,,0,,BARRIO,SAN MIGUELITO,,,,78330,24,SAN LUIS POTOSÕ        ,28,San Luis PotosÌ,1,San Luis PotosÌ,558,24,,PARC08@HOTMAIL.COM,,Fijo,22.14254264,-100.977023,2010-07
8739271,24028611162000433000000000U5,ESCUELA PREPARATORIA POR COOPERACION NO 1 DE LA SECCION 26 DEL SNTE BENITO SOLIS LUNA,,611161,Escuelas de educaciÛn media superior del sector privado,11 a 30 personas,CALLE,PLAZA FOVISSSTE,ANDADOR,5,CALLE,PADRE EUSEBIO KINO,AVENIDA,AVENIDA DE LA FRONTERA,2,,CENTRO DE ATENCION AL TRABAJADOR CATRA,PLANTA BAJA,,2,COLONIA,FOVISSSTE,EDIFICIO COMERCIAL Y DE SERVICIOS,CENTRO DE ATENCION AL TRABAJADOR CATRA,2,78150,24,SAN LUIS POTOSÕ        ,28,San Luis PotosÌ,1,San Luis PotosÌ,1772,6,4448037935,IPADRONFERNANDEZ@GMAIL.COM,,Fijo,22.16442098,-101.0039144,2019-11
3697514,24035611162000063000000000U5,ESCUELA PREPARATORIA POR COOPERACION NO 32 JUSTO SIERRA,GOBIERNO FEDERAL ,611161,Escuelas de educaciÛn media superior del sector privado,11 a 30 personas,AVENIDA,MEXICO,CALLE,LAS MARGARITAS,AVENIDA,MEXICO,CALLE,CUAUHTEMOC,2,,,,0,SN,LOCALIDAD,RANCHO NUEVO,,,,78430,24,SAN LUIS POTOSÕ        ,35,Soledad de Graciano S·nchez,26,Rancho Nuevo,1211,6,,,,Fijo,22.22104718,-100.926187,2014-12
3701893,24035611162000023000000000U9,ESCUELA PREPARATORIA POR COOPERACION NO 5 GRACIANO SANCHEZ ROMO,GOBIERNO DEL ESTADO DE SAN LUIS POTOSI ,611161,Escuelas de educaciÛn media superior del sector privado,11 a 30 personas,CALLE,MARCELA,CALLE,DIANA,AVENIDA,MARIA TERESA,CALLE,ANGELICA,640,,,,0,,FRACCIONAMIENTO,LA LOMITA 2DA SECCION,,,,78434,24,SAN LUIS POTOSÕ        ,35,Soledad de Graciano S·nchez,1,Soledad de Graciano S·nchez,1103,15,,GRACIANO_SANCHEZ_ROMO@YAHOO.COM.MX,,Fijo,22.16999032,-100.9350086,2014-12
3677660,24028611162000083010000000U8,ESCUELA PREPARATORIA POR COOPERACION NUMERO 2 PROFESOR LUIS G MEDELLIN NI—O,SECCION 26 SNTE AC,611161,Escuelas de educaciÛn media superior del sector privado,6 a 10 personas,CALLE,ESTADOS UNIDOS DE NORTEAMERICA,CALZADA,CALZADA DE GUADALUPE,CALLE,LA PEDRERA,CALLE,REPUBLICA DOMINICANA,360,,,,0,,COLONIA,SATELITE FRANCISCO IGNACIO MADERO,,,,78380,24,SAN LUIS POTOSÕ        ,28,San Luis PotosÌ,1,San Luis PotosÌ,2446,18,,PROFLUISGMEDELLIN02@GMAIL.COM,,Fijo,22.11680191,-100.9647639,2010-07
3668126,24035611162000044000000000U5,ESCUELA PREPARATORIA POR COOPERACION PROFESOR LIBRADO RIVERA,ESCUELA PREPARATORIA POR COOPERACION PROFESOR LIBRADO RIVERA ,611161,Escuelas de educaciÛn media superior del sector privado,31 a 50 personas,CALLE,MIGUEL HIDALGO,CALLE,2 DE ABRIL,CALLE,5 DE MAYO,CALLE,BENITO JUAREZ,704,,,,0,,COLONIA,CENTRO,,,,78430,24,SAN LUIS POTOSÕ        ,35,Soledad de Graciano S·nchez,1,Soledad de Graciano S·nchez,459,17,4448312996,,,Fijo,22.18510612,-100.9465713,2010-07
3712465,24028611162000313000000000U1,ESCUELA PREPARATORIA PROFESOR JESUS MARIA ISAIAS REYES,ESCUELA PREPARATORIA PROFR JESUS MARIA ISAIAS REYES ,611162,Escuelas de educaciÛn media superior del sector p˙blico,11 a 30 personas,AVENIDA,CORAL,CALLE,PRIMERA DE PERLA,CALLE,PERLA,CALLE,JADE,1600,,,,0,,COLONIA,VALLE DORADO,,,,78395,24,SAN LUIS POTOSÕ        ,28,San Luis PotosÌ,1,San Luis PotosÌ,2291,45,4446777743,,,Fijo,22.13375344,-100.9412818,2014-12
3742785,24028611162000134000000000U9,ESCUELA PREPARATORIA PROFESOR JUAN GREGORIO SALINAS PUENTES,SISTEMA EDUCATIVO ESTATAL REGULAR ,611162,Escuelas de educaciÛn media superior del sector p˙blico,31 a 50 personas,CALLE,MARIANO JIMENEZ,CALLE,NINGUNO,CALLE,GUADALUPE VICTORIA,CALLE,MARIANO JIMENEZ,335,,,,0,,COLONIA,AZTECA NORTE,,,,78310,24,SAN LUIS POTOSÕ        ,28,San Luis PotosÌ,1,San Luis PotosÌ,399,10,,PREPAJUANGREGORIOSALINASF@OUTLOOK.COM,,Fijo,22.1534266,-100.9700722,2010-07
3709477,24028611162000325001000000U3,ESCUELA PREPARATORIA PROFESOR PEDRO VALLEJO,GOBIERNO ,611162,Escuelas de educaciÛn media superior del sector p˙blico,11 a 30 personas,CALLE,URESTI,AVENIDA,CUAUHTEMOC,CALLE,MELCHOR OCAMPO,AVENIDA,MARIANO JIMENEZ,520,A,,,,,COLONIA,CENTRO,,,,78233,24,SAN LUIS POTOSÕ        ,28,San Luis PotosÌ,1,San Luis PotosÌ,473,13,4448145412,PEDROVALLEJO_1986@HOTMAIL.COM,WWW.PREPAVELLEJO.SYTES.NET.MX,Fijo,22.14863025,-100.9819949,2014-12
3719488,24028611162000363000000000U4,ESCUELA PREPARATORIA PROFESOR RAFAEL TURRUBIARTES MACIAS,SISTEMA EDUCATIVO ESTATAL REGULAR SEER 24SBC0088Y ,611162,Escuelas de educaciÛn media superior del sector p˙blico,6 a 10 personas,CALLE,XOCHIMILCAS,AVENIDA,CORAS,CALLE,TOTONACAS,CALLE,YAQUIS,100,,,,0,,COLONIA,INDUSTRIAL SAN LUIS,,,,78395,24,SAN LUIS POTOSÕ        ,28,San Luis PotosÌ,1,San Luis PotosÌ,1096,98,,PREPARTN2010@HOTMAIL.COM,,Fijo,22.10979735,-100.9238434,2014-12
3719528,24028611162000373000000000U3,ESCUELA PREPARATORIA PROFESOR TURRUBIARTES MACIAS,SISTEMA EDUCATIVO ESTATAL REGULAR 24SBC0088Y ,611162,Escuelas de educaciÛn media superior del sector p˙blico,11 a 30 personas,CALLE,MAYOS,AVENIDA,CORAS,CALLE,TARAHUMARAS,ANDADOR,NINGUNO,95,,,,0,,COLONIA,INDUSTRIAL SAN LUIS,,,,78395,24,SAN LUIS POTOSÕ        ,28,San Luis PotosÌ,1,San Luis PotosÌ,1096,109,,PREPARTM2010@HOTMAIL.COM,,Fijo,22.10767288,-100.9251277,2014-12
3680390,24028611162000174000000000U5,ESCUELA PREPARATORIA PROFESORA CELIA LECHON NOYOLA,GOBIERNO DEL ESTADO SEER ,611162,Escuelas de educaciÛn media superior del sector p˙blico,31 a 50 personas,CALLE,CALCITA,CALLE,AGUA NUEVA,PROLONGACION,CALCITA,OTRO(ESPECIFIQUE),NINGUNO,,SN,,,,,COLONIA,EL BOSQUECITO,,,,78395,24,SAN LUIS POTOSÕ        ,28,San Luis PotosÌ,1,San Luis PotosÌ,3849,4,,CELIALECHONNOYOLA@HOTMAIL.COM,,Fijo,22.12481031,-100.9337566,2010-07
3742853,24028611162000215001000000U6,ESCUELA PREPARATORIA PROFESORA MARGARITA CARDENAS DE RENTERIA,SISTEMA EDUCATIVO ESTATAL REGULAR ,611162,Escuelas de educaciÛn media superior del sector p˙blico,31 a 50 personas,CALLE,INSURGENTES,CALLE,LOPEZ HERMOSA,CALLE,AZTECA SUR,AVENIDA,VALENTIN AMADOR,815,,,,,,BARRIO,MONTECILLO,,,,78300,24,SAN LUIS POTOSÕ        ,28,San Luis PotosÌ,1,San Luis PotosÌ,3656,8,,PREP.MCRSEER@HOTMAIL.COM,,Fijo,22.15535215,-100.9672511,2010-07
3671514,24028611162000053001000000U1,ESCUELA PREPARATORIA RAFAEL NIETO COMPEAN,SISTEMA EDUCATIVO ESTATAL REGULAR ,611162,Escuelas de educaciÛn media superior del sector p˙blico,31 a 50 personas,CALLE,CORONEL ONTA—ON,CALLE,CORONEL ROMERO,AVENIDA,LUIS DONALDO COLOSIO,CALLE,PASAJE,0,SN,,,,,COLONIA,ESTADIO,,,,78280,24,SAN LUIS POTOSÕ        ,28,San Luis PotosÌ,1,San Luis PotosÌ,581,2,4448206739,,,Fijo,22.14119494,-100.9832332,2010-07
3716441,24028611162000333000000000U7,ESCUELA PREPARATORIA SOLIDARIDAD,SECRETARIA DE EDUCACION DE GOBIERNO DEL ESTADO ,611162,Escuelas de educaciÛn media superior del sector p˙blico,31 a 50 personas,CALLE,PARQUE NACIONAL FRAY DIEGO DE LA MAGDALENA,CALLE,BOSQUE,CALLE,CIRCUITO DEL RIO,CALLE,VIVEROS,340,,,,0,,COLONIA,GARITA DEJALISCO,,,,78294,24,SAN LUIS POTOSÕ        ,28,San Luis PotosÌ,1,San Luis PotosÌ,2893,35,4448415274,PREPA_NC2010@HOTMAIL.COM,,Fijo,22.13463359,-101.011491,2014-12
3697617,24035611162000073000000000U4,ESCUELA PREPARATORIA TOMAS MIRANDA LEURA,SECRETARIA DE GOBIERNO DEL ESTADO ,611162,Escuelas de educaciÛn media superior del sector p˙blico,11 a 30 personas,CALLE,PROLONGACION MELCHOR OCAMPO,PERIFERICO,ANILLO PERIFERICO ORIENTE,CALLE,PROLONGACION RAYON,CALLE,PROLONGACION MELCHOR OCAMPO,0,SN,,,0,,FRACCION,RIVERA,,,,78435,24,SAN LUIS POTOSÕ        ,35,Soledad de Graciano S·nchez,1,Soledad de Graciano S·nchez,444,17,,,,Fijo,22.19114034,-100.9163927,2014-12
8781164,24028812110030361000074509S8,EYE DESIGN,ELVA BAEZ ABURTO SA DE CV,611161,Escuelas de educaciÛn media superior del sector privado,0 a 5 personas,CALLE,NICOLAS FERNANDO TORRE,AVENIDA,HIMNO NACIONAL,CALLE,MANZANOS,AVENIDA,HIMNO NACIONAL,209,3,,,,,CIUDAD,LAS AGUILAS,,,,78240,24,SAN LUIS POTOSÕ        ,28,San Luis PotosÌ,1,San Luis PotosÌ,2003,4,,,,Fijo,22.14633296,-101.0097134,2019-11
3691202,24028611171000821001000000U2,INSTITUTO ALFFA,,611161,Escuelas de educaciÛn media superior del sector privado,6 a 10 personas,CALLE,5 DE MAYO,CALLE,AGUSTIN DE ITURBIDE,CALLE,FRANCISCO I. MADERO,CALLE,IGNACIO ALDAMA,160,ALT,,,,,COLONIA,CENTRO,,,,78000,24,SAN LUIS POTOSÕ        ,28,San Luis PotosÌ,1,San Luis PotosÌ,488,18,,,,Fijo,22.15089238,-100.9767249,2010-07
3672536,24035611121000063000000000M1,INSTITUTO FLORES MAGON,,611161,Escuelas de educaciÛn media superior del sector privado,11 a 30 personas,AVENIDA,ADOLFO LOPEZ MATEOS,CALLE,MIGUEL ALEMAN,CALLE,GUADALUPE VICTORIA,CALLE,ALVARO OBREGON,713,,,,,,COLONIA,SAN ANTONIO,,,,78436,24,SAN LUIS POTOSÕ        ,35,Soledad de Graciano S·nchez,1,Soledad de Graciano S·nchez,656,39,4441293235,,,Fijo,22.15682013,-100.9471302,2010-07
7965800,24028611161000642000000000U3,INSTITUTO JUVENTUD SIGLO XX1,,611161,Escuelas de educaciÛn media superior del sector privado,6 a 10 personas,CALLE,FAUSTO NIETO,CALLE,INDEPENDENCIA,CALLE,MARIANO HIDALGO,AVENIDA,REFORMA,305,,,,,,BARRIO,BARRIO DE SANTIAGO,,,,78049,24,SAN LUIS POTOSÕ        ,28,San Luis PotosÌ,1,San Luis PotosÌ,365,24,,INSJUV@HOTMAIL.COM,,Fijo,22.15689411,-100.9802303,2019-11
3763335,24028611161000253010000000U9,INSTITUTO LATINOAMERICANO DE SAN LUIS,CONGREGACION DEL SANTISIMO REDENTOR PROVINCIA DE MEXICO AR,611161,Escuelas de educaciÛn media superior del sector privado,6 a 10 personas,CALLE,TOMASA ESTEVES,CALLE,NICOLAS ZAPATA,CALLE,GENERAL MARIANO ARISTA,CALLE,GENERAL MARIANO ARISTA,405,,,,0,,COLONIA,TEQUISQUIAPAN,,,,78250,24,SAN LUIS POTOSÕ        ,28,San Luis PotosÌ,1,San Luis PotosÌ,197A,9,,,,Fijo,22.15272855,-100.9853021,2010-07
11783326,24035611161000102000000000U3,INSTITUTO PANAMERICANO,INSTITUTO PANAMERICANO SC,611161,Escuelas de educaciÛn media superior del sector privado,6 a 10 personas,CALLE,5 DE MAYO,CALLE,MIGUEL HIDALGO,CALLE,BENITO JUAREZ,CALLE,F. BERRIOZABAL,106,,,,0,,COLONIA,SOLEDAD CENTRO,,,,78430,24,SAN LUIS POTOSÕ        ,35,Soledad de Graciano S·nchez,1,Soledad de Graciano S·nchez,459,16,,,,Fijo,22.18552425,-100.9459945,2025-04
8180567,24028611161000711000000000S6,INSTITUTO PONCIANO ARRIAGA,LENIN CAMPOS CORDOVA AC,611161,Escuelas de educaciÛn media superior del sector privado,6 a 10 personas,CALLE,MELCHOR OCAMPO,PRIVADA,NINGUNO,CALLE,NINGUNO,OTRO(ESPECIFIQUE),ARROYO,,SN,,,0,,COLONIA,PLAN PONCIANO ARRIAGA,,,,78117,24,SAN LUIS POTOSÕ        ,28,San Luis PotosÌ,1,San Luis PotosÌ,2821,39,4448127269,,,Fijo,22.20120213,-100.9935281,2019-11
3746573,24028611161000293001000000S5,INSTITUTO PONCIANO ARRIAGA,INSTITUTO PONCIANO ARRIAGA AC,611161,Escuelas de educaciÛn media superior del sector privado,6 a 10 personas,CALLE,SAVILA,PROLONGACION,GARAMBULLO,CALLE,CAMINO A SAN JUANICO,PROLONGACION,GARAMBULLO,101,,,,,,COLONIA,LOS MAGUYES,,,,78100,24,SAN LUIS POTOSÕ        ,28,San Luis PotosÌ,1,San Luis PotosÌ,3251,46,4443861173,,,Fijo,22.20724701,-100.9809556,2010-07
7965572,24028611161000633000000000U2,INSTITUTO PONCIANO ARRIAGA,ARAHAM VILLA ORTEGA AC,611161,Escuelas de educaciÛn media superior del sector privado,11 a 30 personas,CALLE,PASCUAL M HERNANDEZ,CALLE,XICOTENCATL,CALLE,PROFESOR PEDRO VALLEJO,CALLE,MIGUEL BARRAGAN,533,,,,,,BARRIO,SAN MIGUELITO,,,,78330,24,SAN LUIS POTOSÕ        ,28,San Luis PotosÌ,1,San Luis PotosÌ,558,7,4444271140,IPAPREPA@HOTMAIL.COM,,Fijo,22.14644061,-100.97724,2019-11
3680748,24028611162000113000000000U1,INSTITUTO PONCIANO ARRIAGA,INSTITUTO PONCIANO ARRIAGA AC,611162,Escuelas de educaciÛn media superior del sector p˙blico,0 a 5 personas,AVENIDA,SALK,CALLE,PAULINO URIOSTEGUI CRUZ,AVENIDA,FRANZ ZARAT,CALLE,EMILIANO VILLA RODES,2839,,,,0,,COLONIA,NUEVA PROGRESO,,,,78385,24,SAN LUIS POTOSÕ        ,28,San Luis PotosÌ,1,San Luis PotosÌ,3798,26,,IPA_PREPA@HOTMAIL.COM,,Fijo,22.11898688,-100.9429848,2010-07
10117232,24028611161000762000000000U9,INSTITUTO POTOSINOS DE ESPECIALIDADES AVANZADAS,,611161,Escuelas de educaciÛn media superior del sector privado,6 a 10 personas,CALLE,TANGAMANGA,CALLE,PRIVADA PRIMERA DE CENTRAL,CALLE,NEZAHUALCOYOTL,CALLE,FERROCARRIL CENTRAL,150,,CENTRAL TANGAMANGA,PISO 1,17,,COLONIA,BARRIO DE TLAXCALA,CENTRAL CAMIONERA,CENTRAL TANGAMANGA,17,78038,24,SAN LUIS POTOSÕ        ,28,San Luis PotosÌ,1,San Luis PotosÌ,2018,20,,,,Fijo,22.15941487,-100.9732924,2024-11
8768755,24028611632000031000000000U9,LABORATORIO DE IDIOMAS DEL COBACH PLANTEL NO19,COLEGIO DE BACHILLERES DEL DEL ESTADO DE SAN LUIS POTOSI SEGE ,611162,Escuelas de educaciÛn media superior del sector p˙blico,0 a 5 personas,CALLE,FELIPE ANGELES,AVENIDA,ADOLFO LOPEZ MATEOS,CALLE,BUGAMBILIAS,CALLE,JULIAN CARRILLO,,SN,,,,,COLONIA,EL SAUCITO,,,,78110,24,SAN LUIS POTOSÕ        ,28,San Luis PotosÌ,1,San Luis PotosÌ,1359,100,4448230108,,,Fijo,22.18595773,-100.997113,2019-11
6394508,24028713998000031001010983S1,MOTOLINIA PREPARATORIA,MOTOLINIA DE SAN LUIS AC,611161,Escuelas de educaciÛn media superior del sector privado,51 a 100 personas,CALLE,CORDILLERA ARAKAN,CALLE,CORDILLERA CENTRAL,CALLE,CORDILLERA ARAKAN,AVENIDA,SIERRA VISTA,709,,,,,,COLONIA,LOMAS CUARTA SECCION,,,,78216,24,SAN LUIS POTOSÕ        ,28,San Luis PotosÌ,1,San Luis PotosÌ,1556,45,,MOTO_SLP@YAHOO.COM.MX,WWW.MOTOLINIASLP.EDU.MX,Fijo,22.13877936,-101.0349071,2010-07
10095514,24028611151000111000000000U0,OFICINAS DE CENTRO DE ENTRENAMIENTO Y CAPACITACION INDUSTRIAL CECAI,SERVICIOS INDUSTRIALES CE CAI SA DE CV,611151,Escuelas de educaciÛn media tÈcnica terminal del sector privado,0 a 5 personas,CALLE,LATERAL SALVADOR NAVA MARTINEZ,CALLE,5 DE MAYO,AVENIDA,JUAREZ,CIRCUITO,VILLA RICA,1622,,,,,,COLONIA,SANTUARIO,,,,78358,24,SAN LUIS POTOSÕ        ,28,San Luis PotosÌ,1,San Luis PotosÌ,1293,39,,CECAI.CONTACTO.MATRIZ@GMAIL.COM,CECAI.COM,Fijo,22.13022538,-100.9701446,2024-11
10183296,24035611161000091000000000U8,PREPA ABIERTA BENEMERITO,PREPA ABIERTA BENEMERITO AC,611161,Escuelas de educaciÛn media superior del sector privado,0 a 5 personas,AVENIDA,SAN PEDRO,CALLE,REPUBLICA DE CHILE,CALLE,REPUBLICA DOMINICANA,CALLE,REPUBLICA DE PANAMA,548,,,,,,COLONIA,SAN FRANCISCO,,,,78435,24,SAN LUIS POTOSÕ        ,35,Soledad de Graciano S·nchez,1,Soledad de Graciano S·nchez,571,23,,PREPABENEMERITO@HOTMAIL.COM,,Fijo,22.1678224,-100.9469504,2024-11
8739037,24035611161000071000000000U0,PREPARATORIA ABIERTA SOLEDAD,PREPARATORIA ABIERTA SOLEDAD ,611162,Escuelas de educaciÛn media superior del sector p˙blico,0 a 5 personas,CALLE,MIGUEL HIDALGO,CALLE,2 DE ABRIL,CALLE,LATERAL SAN LUIS-MATEHUALA,CALLE,BENITO JUAREZ,832,B,,,0,,COLONIA,SOLEDA DE GRACIANO SANCHEZ,,,,78430,24,SAN LUIS POTOSÕ        ,35,Soledad de Graciano S·nchez,1,Soledad de Graciano S·nchez,459,35,,,,Fijo,22.18449692,-100.9496358,2019-11
7874853,24028611161000732000000000S2,PREPARATORIA ALFA Y OMEGA,INSTITUTO CULTURAL ALFA Y OMEGA AC,611161,Escuelas de educaciÛn media superior del sector privado,11 a 30 personas,CALLE,FUENTE DEL BOSQUE,PROLONGACION,MARIANO JIMENEZ,CALLE,FUENTE DE LA LLUVIA,CALLE,FUENTE DE LAS FLORES,165,,,,,,COLONIA,BALCONES DEL VALLE,,,,78369,24,SAN LUIS POTOSÕ        ,28,San Luis PotosÌ,1,San Luis PotosÌ,2395,35,,,,Fijo,22.13280395,-100.9893661,2019-11
3665834,24035611161000013001000000U2,PREPARATORIA JOSE VASCONCELOS,CENTRO DE DESARROLLO DE INVESTIGACI”N EDUCACION Y CULTURA SC,611161,Escuelas de educaciÛn media superior del sector privado,31 a 50 personas,AVENIDA,SAN LUIS,CALLE,MOCTEZUMA,CALLE,SAN MARTÕN,AVENIDA,SOLEDAD,1096,,,,,,COLONIA,SAN FELIPE,,,,78433,24,SAN LUIS POTOSÕ        ,35,Soledad de Graciano S·nchez,1,Soledad de Graciano S·nchez,1048,6,,LILIANA.FRANCHELI@CJV.EDU.MX,WWW.COLEGIOJOSEVAZCONCELOS.COM,Fijo,22.17911459,-100.958802,2010-07
3703108,24035611162000053000000000U6,PREPARATORIA JUVENTUD SOLEDENSE,PREPARATORIA JUVENTUD SOLEDENSE ,611162,Escuelas de educaciÛn media superior del sector p˙blico,11 a 30 personas,CALLE,NI—OS HEROES,CALLE,MIGUEL HIDALGO,CALLE,BENITO JUAREZ,CALLE,CARLOS DIEZ GUTIERREZ,118,,,,0,,COLONIA,SOLEDAD CENTRO SOLEDAD DE GRACIANO SANCHEZ,,,,78430,24,SAN LUIS POTOSÕ        ,35,Soledad de Graciano S·nchez,1,Soledad de Graciano S·nchez,459,14,,,,Fijo,22.18620482,-100.9429384,2014-12
3671506,24028611162000235001000000U4,PREPARATORIA LICENCIADO JESUS SILVA HERZOG,SISTEMA EDUCATIVO ESTATAL REGULAR ,611162,Escuelas de educaciÛn media superior del sector p˙blico,51 a 100 personas,CALLE,CORONEL ONTA—ON,CALLE,CORONEL ROMERO,AVENIDA,LUIS DONALDO COLOSIO,CALLE,PASAJE,997,,,,0,,COLONIA,ESTADIO,,,,78280,24,SAN LUIS POTOSÕ        ,28,San Luis PotosÌ,1,San Luis PotosÌ,581,2,4448200002,,,Fijo,22.14120433,-100.983535,2010-07
3698809,24035611161000052000000000U0,PREPARATORIA MIGUEL DE CERVANTES SAAVEDRA,,611161,Escuelas de educaciÛn media superior del sector privado,6 a 10 personas,CALLE,16 DE SEPTIEMBRE,CALLE,PROLONGACION CORREGIDORA,CALLE,ZARAGOZA,CALLE,INDEPENDENCIA,108,,,,0,,COLONIA,SOLEDAD DE GRACIANO SANCHEZ,,,,78430,24,SAN LUIS POTOSÕ        ,35,Soledad de Graciano S·nchez,1,Soledad de Graciano S·nchez,247,3,,,,Fijo,22.19051975,-100.9362743,2014-12
3738355,24028611162000073000000000U9,PREPARATORIA MUNICIPAL PONCIANO ARRIAGA,SISTEMA EDUCATIVO ESTATAL REGULAR ,611162,Escuelas de educaciÛn media superior del sector p˙blico,11 a 30 personas,CALLE,FRAMBOYAN,PROLONGACION,LOS ARBOLITOS,PRIVADA,SEGUNDA DE FRAMBOYAN,PRIVADA,SEGUNDA DE FRAMBOYAN,361,,,,0,,COLONIA,TERCERA GRANDE,,,,78143,24,SAN LUIS POTOSÕ        ,28,San Luis PotosÌ,1,San Luis PotosÌ,1965,72,,PRE_PA@HOTMAIL.COM,,Fijo,22.17840891,-100.9696896,2010-07
3745662,24028611162000184000000000U4,PREPARATORIA PROFRA. CELIA FERNANDEZ CAPETILLO,GOBIERNO DEL ESTADO ,611162,Escuelas de educaciÛn media superior del sector p˙blico,31 a 50 personas,CALLE,MADRIGAL,CALLE,REY ADRIANO,CALLE,MARIA ENRIQUETA,CALLE,REY ADRIANO,629,,,,0,SN,COLONIA,LOS REYES,,,,78170,24,SAN LUIS POTOSÕ        ,28,San Luis PotosÌ,1,San Luis PotosÌ,2662,55,4448331117,PREPCELIAFERNANDEZ0895@GMAIL.COM,,Fijo,22.16614949,-100.9970869,2010-07
9278986,24035611161000083000000000U5,PREPARATORIA QUALITY EDUCATION CENTER,QUALITY EDUCATION CENTER SLP AC,611161,Escuelas de educaciÛn media superior del sector privado,0 a 5 personas,AVENIDA,CORDILLERA ORIENTAL,CALLE,5,OTRO(ESPECIFIQUE),NINGUNO,OTRO(ESPECIFIQUE),NINGUNO,1315,A,,,,,FRACCIONAMIENTO,QUINTAS DE LA HACIENDA II,,,,78438,24,SAN LUIS POTOSÕ        ,35,Soledad de Graciano S·nchez,1,Soledad de Graciano S·nchez,1014,80,,,,Fijo,22.14727525,-100.8984377,2020-11
8546082,24028611161000612000000000U6,PREPARATORIA SAN LUIS REY,RUBEN MAGDALENO CONTRERAS SC,611161,Escuelas de educaciÛn media superior del sector privado,6 a 10 personas,AVENIDA,GRANJAS,CALLE,TENAYUCA,AVENIDA,VASCO DE QUIROGA,AVENIDA,KUKULKAN,120,,,,0,,COLONIA,RETORNOS,,,,78140,24,SAN LUIS POTOSÕ        ,28,San Luis PotosÌ,1,San Luis PotosÌ,1895,28,,PREPASANLUISR@GMAIL.COM,,Fijo,22.17291816,-101.0008514,2019-11
3710091,24028611161000431001000000U1,TBS SERVICIOS PARA MUJERES,ESCUELA DE EDUCACI”N MEDIA SUPERIOR DEL SECTOR PRIVADO SIN NOMBRE ,611161,Escuelas de educaciÛn media superior del sector privado,0 a 5 personas,CALLE,MANUEL JOSE OTHON,CALLE,JOSE MARIA MORELOS Y PAVON,CALLE,IGNACIO ZARAGOZA,CALLE,AGUSTIN DE ITURBIDE,150,,,,0,,COLONIA,CENTRO,,,,78000,24,SAN LUIS POTOSÕ        ,28,San Luis PotosÌ,1,San Luis PotosÌ,488,20,,THEBEAUTYSTUDIO@SLP.COM,,Fijo,22.15137243,-100.975541,2014-12